{"centers":[{"center_id":565197,"name":"Kengeri CHC","district_name":"BBMP","state_name":"Karnataka","location":"Mysore Road KENGERI","pincode":"560060","block_name":"DASRAHALLI","lat":"12.00000000","long":"77.00000000"},{"center_id":581754,"name":"SS SPARSH HOSPITAL 1","district_name":"BBMP","state_name":"Karnataka","location":"RRNAGAR ","pincode":"560056","block_name":"DASRAHALLI","lat":"12.00000000","long":"77.00000000"},{"center_id":587066,"name":"BANGARAPPA NAGARA FLW","district_name":"BBMP","state_name":"Karnataka","location":"KENCHANAHALLI","pincode":"560098","block_name":"Bommanahalli","lat":"12.00000000","long":"77.00000000"},{"center_id":587100,"name":"BANGARAPPA NAGARA FLW2","district_name":"BBMP","state_name":"Karnataka","location":"KENCHENAHALLI","pincode":"560060","block_name":"DASRAHALLI","lat":"12.00000000","long":"77.00000000"},{"center_id":587123,"name":"KENGERI UPANAGARA FLW","district_name":"BBMP","state_name":"Karnataka","location":"KENGERI UPANAGARA","pincode":"560060","block_name":"DASRAHALLI","lat":"12.00000000","long":"77.00000000"},{"center_id":587139,"name":"KENGERI UPPANAGAR FLW 2","district_name":"BBMP","state_name":"Karnataka","location":"KENGERI UPPANAGAR","pincode":"560060","block_name":"DASRAHALLI","lat":"12.00000000","long":"77.00000000"},{"center_id":587823,"name":"BANGARRAPPANAGAR FLW3","district_name":"BBMP","state_name":"Karnataka","location":"KENCHANAHALLI RRNAGAR NEAR GLOBAL COLLEGE","pincode":"560098","block_name":"Bommanahalli","lat":"12.00000000","long":"77.00000000"},{"center_id":587958,"name":"KENGERI CHC 09","district_name":"BBMP","state_name":"Karnataka","location":"KENGERI","pincode":"560060","block_name":"DASRAHALLI","lat":"12.00000000","long":"77.00000000"},{"center_id":587962,"name":"KENGERI UPANAGAR 46","district_name":"BBMP","state_name":"Karnataka","location":"KENGERI UPANAGAR ","pincode":"560060","block_name":"DASRAHALLI","lat":"12.00000000","long":"77.00000000"},{"center_id":587962,"name":"KENGERI UPANAGAR 46","district_name":"BBMP","state_name":"Karnataka","location":"KENGERI UPANAGAR","pincode":"560060","block_name":"DASRAHALLI","lat":"12.00000000","long":"77.00000000"},{"center_id":588765,"name":"KENGERI CHC 9","district_name":"BBMP","state_name":"Karnataka","location":"KENGERI","pincode":"560060","block_name":"DASRAHALLI","lat":"12.00000000","long":"77.00000000"},{"center_id":591159,"name":"KENGERI CHC 11","district_name":"BBMP","state_name":"Karnataka","location":"KEENGERI","pincode":"560060","block_name":"DASRAHALLI","lat":"12.00000000","long":"77.00000000"},{"center_id":591294,"name":"MUGULNAGE 2","district_name":"BBMP","state_name":"Karnataka","location":"KENGERI","pincode":"560060","block_name":"DASRAHALLI","lat":"12.00000000","long":"77.00000000"},{"center_id":592129,"name":"KENGERI CHC -22","district_name":"BBMP","state_name":"Karnataka","location":"KENGERI","pincode":"560060","block_name":"DASRAHALLI","lat":"12.00000000","long":"77.00000000"},{"center_id":592145,"name":"KENGERI UPHC-22","district_name":"BBMP","state_name":"Karnataka","location":"KENGERI","pincode":"560060","block_name":"DASRAHALLI","lat":"12.00000000","long":"77.00000000"},{"center_id":592154,"name":"BANGARAPPA 13","district_name":"BBMP","state_name":"Karnataka","location":"BANGARAPPA NAGARA, R R NAGRA","pincode":"560098","block_name":"Bommanahalli","lat":"12.00000000","long":"77.00000000"},{"center_id":604440,"name":"BGS GIMS","district_name":"BBMP","state_name":"Karnataka","location":"NUMBER 67 BGS Health AND Education City, Uttarahalli Road, Kengeri, Bangalore","pincode":"560060","block_name":"DASRAHALLI","lat":"12.00000000","long":"77.00000000"},{"center_id":696262,"name":"SAGAR THILAKNAGAR IWCVC","district_name":"BBMP","state_name":"Karnataka","location":"THILAKNAGAR JAYANAGAR EXTENSION ","pincode":"560041","block_name":"South","lat":"12.00000000","long":"77.00000000"},{"center_id":696384,"name":"SAGAR DSI IWCVC","district_name":"BBMP","state_name":"Karnataka","location":"SHAVAGE MALLESHWARA HILLS KS LAYOUT","pincode":"560078","block_name":"South","lat":"12.00000000","long":"77.00000000"},{"center_id":696391,"name":"SAGAR DSI IWCVC COVAXIN","district_name":"BBMP","state_name":"Karnataka","location":"SHAVAGE MALLESHWARA HILLS K S LAYOUT","pincode":"560078","block_name":"South","lat":"12.00000000","long":"77.00000000"},{"center_id":696971,"name":"APOLLO JAYANAGAR IWCVC","district_name":"BBMP","state_name":"Karnataka","location":"21 2 14TH CROSS 3RD BLOCK NEAR MADAVAN PARK","pincode":"560011","block_name":"South","lat":"12.00000000","long":"77.00000000"},{"center_id":696976,"name":"APOLLO JAYANAGAR SUB-CENTER","district_name":"BBMP","state_name":"Karnataka","location":"21 3 14TH CROSS NEAR MADHAVAN PARK ","pincode":"560011","block_name":"South","lat":"12.00000000","long":"77.00000000"},{"center_id":700741,"name":"MANIPAL CLNIC IWCVC","district_name":"BBMP","state_name":"Karnataka","location":"45 1 CROSS 9TH BLOCK JAYANAGR NEAR CENTRAL MALL","pincode":"560078","block_name":"South","lat":"12.00000000","long":"77.00000000"},{"center_id":701226,"name":"DR AGARWALS COVAXIN","district_name":"BBMP","state_name":"Karnataka","location":"OPP SHOPPERS STOP BANNERGHATTA MAIN ROAD","pincode":"560061","block_name":"South","lat":"12.00000000","long":"77.00000000"},{"center_id":704372,"name":"ASTER CLINIC IWCVC","district_name":"BBMP","state_name":"Karnataka","location":"952 24TH MAIN 2ND PHASE JP NAGAR ","pincode":"560078","block_name":"South","lat":"12.00000000","long":"77.00000000"},{"center_id":704375,"name":"ASTER SUB-CENTER JP NAGAR","district_name":"BBMP","state_name":"Karnataka","location":"952 24TH MAIN 2ND PHASE JP NAGAR ","pincode":"560078","block_name":"South","lat":"12.00000000","long":"77.00000000"},{"center_id":705033,"name":"APOLLO JAYANAGAR-COVAXIN","district_name":"BBMP","state_name":"Karnataka","location":"21 2 14TH CROSS 3RD BLOCK NEAR MADAVAN PARK","pincode":"560011","block_name":"South","lat":"12.00000000","long":"77.00000000"},{"center_id":705036,"name":"APOLLO JAYANAGAR COWAXIN SUB-C","district_name":"BBMP","state_name":"Karnataka","location":"14TH CROSS NEAR MADAVAN PARK","pincode":"560011","block_name":"South","lat":"12.00000000","long":"77.00000000"},{"center_id":705038,"name":"APOLLO JAYANAGAR COWAXIN IWCVC","district_name":"BBMP","state_name":"Karnataka","location":"14TH CROSS NEAR MADHAVAN PARK ","pincode":"560011","block_name":"South","lat":"12.00000000","long":"77.00000000"},{"center_id":705635,"name":"CLOUDNINE JAYANAGAR IWCVC","district_name":"BBMP","state_name":"Karnataka","location":"1533 9TH MAIN 3RD BLOCK JAYANAGAR","pincode":"560011","block_name":"South","lat":"12.00000000","long":"77.00000000"},{"center_id":705829,"name":"APOLLO-JAYANAGAR SPUTNIK-V","district_name":"BBMP","state_name":"Karnataka","location":"No.21-2, 14th Cross Road, Near Madhavan Park Circle, Jayanagar East, Jayanagar, Bengaluru, Karnataka 560011","pincode":"560011","block_name":"South","lat":"12.00000000","long":"77.00000000"},{"center_id":705839,"name":"APOLLO JAYANAGAR SPUTNIK-V SUB","district_name":"BBMP","state_name":"Karnataka","location":"No.21-2, 14th Cross Road, Near Madhavan Park Circle, Jayanagar East, Jayanagar, Bengaluru, Karnataka 560011","pincode":"560011","block_name":"South","lat":"12.00000000","long":"77.00000000"},{"center_id":705843,"name":"APOLLO-JAYANAGAR SPUTNIK IWCVC","district_name":"BBMP","state_name":"Karnataka","location":"No.21-2, 14th Cross Road, Near Madhavan Park Circle, Jayanagar East, Jayanagar, Bengaluru, Karnataka 560011","pincode":"560011","block_name":"South","lat":"12.00000000","long":"77.00000000"},{"center_id":706398,"name":"ST JOHNS SUB-CENTER","district_name":"BBMP","state_name":"Karnataka","location":"SARJAPUR ROAD ","pincode":"560034","block_name":"South","lat":"12.00000000","long":"77.00000000"},{"center_id":706401,"name":"ST JOHNS IWCVC","district_name":"BBMP","state_name":"Karnataka","location":"SARJAPUR ROAD","pincode":"560034","block_name":"South","lat":"12.00000000","long":"77.00000000"},{"center_id":706455,"name":"APOLLO-CRADLE-KORMANGALA-SUB C","district_name":"BBMP","state_name":"Karnataka","location":"NEAR ANAND SWEET 5TH BLOCK KORMANGALA","pincode":"560030","block_name":"South","lat":"12.00000000","long":"77.00000000"},{"center_id":706462,"name":"APOLLO CRADLE KORMAGALA IWCVC","district_name":"BBMP","state_name":"Karnataka","location":"NEAR ANAND SWEET 5THBLOCK KORMANGALA","pincode":"560030","block_name":"South","lat":"12.00000000","long":"77.00000000"},{"center_id":706473,"name":"APOLLO CRADLE JAYANAGAR SUB CE","district_name":"BBMP","state_name":"Karnataka","location":"JAYANAGAR 5TH BLOCK OPP RAGAVEDRA MUTT","pincode":"560011","block_name":"South","lat":"12.00000000","long":"77.00000000"},{"center_id":706482,"name":"APOLLO CRADLE JAYANAGAR IWCVC","district_name":"BBMP","state_name":"Karnataka","location":"JAYANAGAR 5TH BLOCK OPP RAGHAVENDRA MUTT","pincode":"560011","block_name":"South","lat":"12.00000000","long":"77.00000000"},{"center_id":707410,"name":"ASTER RV SUB-CENTER","district_name":"BBMP","state_name":"Karnataka","location":"CA-37,24th Main,1st Phase J P Nagar, Bengaluru 560078,","pincode":"560078","block_name":"South","lat":"12.00000000","long":"77.00000000"},{"center_id":707640,"name":"ASTER CLINIC JP NAGAR  IWCVC","district_name":"BBMP","state_name":"Karnataka","location":"952 24TH MAIN 2ND PHASE JP NAGAR ","pincode":"560078","block_name":"South","lat":"12.00000000","long":"77.00000000"},{"center_id":707902,"name":"APOLLO CLINIC BULL TEMPLE SUB ","district_name":"BBMP","state_name":"Karnataka","location":"99 BULL TEMPLE ROAD BASAVANAGUDI","pincode":"560019","block_name":"South","lat":"12.00000000","long":"77.00000000"},{"center_id":707905,"name":"APOLLO BULLTEMPLE IWCVC","district_name":"BBMP","state_name":"Karnataka","location":"BULL TEMPLE ROAD BASAVANAGUDI","pincode":"560019","block_name":"South","lat":"12.00000000","long":"77.00000000"},{"center_id":708142,"name":"VASAVI HOSPITAL KSL 1","district_name":"BBMP","state_name":"Karnataka","location":"49 540 10TH MAIN ROAD 32ND CROSS 4TH BLOCK JAYANAGAR","pincode":"560011","block_name":"South","lat":"12.00000000","long":"77.00000000"},{"center_id":708146,"name":"VASAVI HOSPITAL KSL 6","district_name":"BBMP","state_name":"Karnataka","location":"NO 46 17TH CROSS MC ROAD NEAR VIJAYANAGAR METRO STATION VIJAYANAGAR BANGALORE","pincode":"560040","block_name":"South","lat":"12.00000000","long":"77.00000000"},{"center_id":708153,"name":"VASAVI HOSPITAL KSL 7","district_name":"BBMP","state_name":"Karnataka","location":"NENAPU 9 46 AND 8 45 80 FEET MAIN ROAD S B M COLONY BSK 1ST STAGE  BANGALORE ","pincode":"560050","block_name":"South","lat":"12.00000000","long":"77.00000000"},{"center_id":708156,"name":"VASAVI HOSPITAL KSL 2","district_name":"BBMP","state_name":"Karnataka","location":"NO 808 15TH CROSS 3RD BLOCK JAYANAGAR","pincode":"560011","block_name":"South","lat":"12.00000000","long":"77.00000000"},{"center_id":708160,"name":"VASAVI HOSPITAL KSL 8","district_name":"BBMP","state_name":"Karnataka","location":"307 40TH CROSS 8TH BLOCK JAYANAGAR BANGALORE","pincode":"560070","block_name":"South","lat":"12.00000000","long":"77.00000000"},{"center_id":708163,"name":"VASAVI HOSPITAL KSL 3","district_name":"BBMP","state_name":"Karnataka","location":"NO 1ST CROSS 3RD SHANKARPURAMA BASAVANAGUDI ","pincode":"560004","block_name":"South","lat":"12.00000000","long":"77.00000000"},{"center_id":708165,"name":"VASAVI HOSPITAL KSL 4","district_name":"BBMP","state_name":"Karnataka","location":"611 612 Nagarabhavi Main Road  2nd Stage  Vinayaka Layout Nagarabavi ","pincode":"560072","block_name":"South","lat":"12.00000000","long":"77.00000000"},{"center_id":708166,"name":"VASAVI HOSPITAL KSL 9","district_name":"BBMP","state_name":"Karnataka","location":"8 AUROBINDO MARG ST BLOCK JP NAGAR BANGALORE","pincode":"560041","block_name":"South","lat":"12.00000000","long":"77.00000000"},{"center_id":708170,"name":"VASAVI HOSPITAL KSL 5","district_name":"BBMP","state_name":"Karnataka","location":"No 6 15th Main  11th Cross Padmanabhanagar","pincode":"560070","block_name":"South","lat":"12.00000000","long":"77.00000000"},{"center_id":708172,"name":"VASAVI HOSPITAL KSL 10","district_name":"BBMP","state_name":"Karnataka","location":"495 17TH CROSS ROAD 24TH CROSS BANASHANKARI 2ND STAGE BANGALORE ","pincode":"560070","block_name":"South","lat":"12.00000000","long":"77.00000000"},{"center_id":708174,"name":"VASAVI HOSPIAL KSL 11","district_name":"BBMP","state_name":"Karnataka","location":"27th Cross Bhanashankari 2nd Stage","pincode":"560070","block_name":"South","lat":"12.00000000","long":"77.00000000"},{"center_id":708215,"name":"VASAVI HOSPITAL KSL 12","district_name":"BBMP","state_name":"Karnataka","location":"01 Ittamadu Main road AGS Layout Arehalli  Uttarahalli Bangalore","pincode":"560061","block_name":"South","lat":"12.00000000","long":"77.00000000"},{"center_id":708800,"name":"VASAVI HOSPITAL KSL SUB-CENTER","district_name":"BBMP","state_name":"Karnataka","location":"70TH CROSS,OPP TO 15 E BUS STOP, KS LAYOUT 1ST STAGE, B-78","pincode":"560078","block_name":"South","lat":"12.00000000","long":"77.00000000"},{"center_id":401044,"name":"Gulipura SC Covishield","district_name":"Chamarajanagar","state_name":"Karnataka","location":"Nayaka Street Gulipura","pincode":"571117","block_name":"Chamarajanagar","lat":"11.99830000","long":"77.01900000"},{"center_id":671736,"name":"Gulipura SC Covaxin","district_name":"Chamarajanagar","state_name":"Karnataka","location":"Nayaka Street Gulipura","pincode":"571117","block_name":"Chamarajanagar","lat":"11.99830000","long":"77.01900000"},{"center_id":401159,"name":"Kannegala SC Covishield","district_name":"Chamarajanagar","state_name":"Karnataka","location":"Near Govt School Kannegala","pincode":"571115","block_name":"Chamarajanagar","lat":"11.99070000","long":"76.98280000"},{"center_id":401189,"name":"Kannegal SC Covishield","district_name":"Chamarajanagar","state_name":"Karnataka","location":"Near Milk Dairy Kannegala","pincode":"571111","block_name":"Gundlupet","lat":"11.99070000","long":"76.98280000"},{"center_id":645457,"name":"Aluru Covax","district_name":"Chamarajanagar","state_name":"Karnataka","location":"Uppar Street Aluru","pincode":"571117","block_name":"Chamarajanagar","lat":"11.97160000","long":"76.99230000"},{"center_id":439798,"name":"Ambale SC Covishield","district_name":"Chamarajanagar","state_name":"Karnataka","location":"Near Grama Panchayath Ambale","pincode":"571441","block_name":"Yelanduru","lat":"12.02790000","long":"77.01140000"},{"center_id":686368,"name":"Ambale SC Covaxin","district_name":"Chamarajanagar","state_name":"Karnataka","location":"Near Grama Panchayath","pincode":"571442","block_name":"Yelanduru","lat":"12.02790000","long":"77.01140000"},{"center_id":399408,"name":"Aluru PHC Covishiled","district_name":"Chamarajanagar","state_name":"Karnataka","location":"Uppar Street Aluru","pincode":"571117","block_name":"Chamarajanagar","lat":"11.96888350","long":"76.99256740"},{"center_id":399408,"name":"Aluru PHC1","district_name":"Chamarajanagar","state_name":"Karnataka","location":"Uppar Street Aluru","pincode":"571117","block_name":"Chamarajanagar","lat":"11.96888350","long":"76.99256740"},{"center_id":401156,"name":"Yadiyuru SC Covishield","district_name":"Chamarajanagar","state_name":"Karnataka","location":"Near Bus Stand Yadiyuru","pincode":"571115","block_name":"Chamarajanagar","lat":"12.01300000","long":"76.96950000"},{"center_id":682786,"name":"Yadiyuru Sc Covaxin","district_name":"Chamarajanagar","state_name":"Karnataka","location":"Near Bus Stand Yadiyuru","pincode":"571115","block_name":"Chamarajanagar","lat":"12.01300000","long":"76.96950000"},{"center_id":401123,"name":"Rechamballi SC Covishield","district_name":"Chamarajanagar","state_name":"Karnataka","location":"Near Govt School Rechamballi","pincode":"571117","block_name":"Chamarajanagar","lat":"11.97430000","long":"77.02660000"},{"center_id":399443,"name":"Santhemarahalli CHC Covishield","district_name":"Chamarajanagar","state_name":"Karnataka","location":"Mysore Main Road Santhe Marahalli","pincode":"571115","block_name":"Chamarajanagar","lat":"12.03625200","long":"76.98356770"},{"center_id":399443,"name":"Santhemarahalli CHC1","district_name":"Chamarajanagar","state_name":"Karnataka","location":"Mysore Main Road Santhe Marahalli","pincode":"571115","block_name":"Chamarajanagar","lat":"12.03625200","long":"76.98356770"},{"center_id":401154,"name":"Santhe Marahalli CHC Covax","district_name":"Chamarajanagar","state_name":"Karnataka","location":"Mysore Main Road Santhe Marahalli","pincode":"571115","block_name":"Chamarajanagar","lat":"12.03625200","long":"76.98356770"},{"center_id":708568,"name":"CHC Santhe Maralli 1","district_name":"Chamarajanagar","state_name":"Karnataka","location":"Mysore Main Road Santhe Marahalli","pincode":"571115","block_name":"Chamarajanagar","lat":"12.03625200","long":"76.98356770"},{"center_id":399432,"name":"Kagalavadi PHC Covishiled","district_name":"Chamarajanagar","state_name":"Karnataka","location":"Near Police Station Kagalavadi","pincode":"571117","block_name":"Chamarajanagar","lat":"11.96499000","long":"77.02136000"},{"center_id":399432,"name":"Kagalavadi PHC","district_name":"Chamarajanagar","state_name":"Karnataka","location":"Near Police Station Kagalavadi","pincode":"571117","block_name":"Chamarajanagar","lat":"11.96499000","long":"77.02136000"},{"center_id":401114,"name":"Kandahalli SC Covishield","district_name":"Chamarajanagar","state_name":"Karnataka","location":"Nayaka Street 2nd Center","pincode":"571441","block_name":"Yelanduru","lat":"12.03930000","long":"77.01250000"},{"center_id":399427,"name":"Honganuru PHC","district_name":"Chamarajanagar","state_name":"Karnataka","location":"Near SBI Bank Honganuru","pincode":"571117","block_name":"Chamarajanagar","lat":"11.98043910","long":"77.03791590"},{"center_id":399427,"name":"Honganuru","district_name":"Chamarajanagar","state_name":"Karnataka","location":"Near SBI Bank Honganuru","pincode":"571117","block_name":"Chamarajanagar","lat":"11.98043910","long":"77.03791590"},{"center_id":401111,"name":"Honganuru PHC Covaxin","district_name":"Chamarajanagar","state_name":"Karnataka","location":"Near SBI Bank Honganuru","pincode":"571117","block_name":"Chamarajanagar","lat":"11.98043910","long":"77.03791590"},{"center_id":674149,"name":"Masanapura SC Covishield","district_name":"Chamarajanagar","state_name":"Karnataka","location":"SC Street Masanapura","pincode":"571117","block_name":"Chamarajanagar","lat":"11.99530000","long":"77.04300000"},{"center_id":401112,"name":"Irasavadi SC Covishield","district_name":"Chamarajanagar","state_name":"Karnataka","location":"Near Gram Panchayath Irasavadi","pincode":"571117","block_name":"Chamarajanagar","lat":"12.01260000","long":"77.04210000"},{"center_id":399427,"name":"Honganuru PHC","district_name":"Chamarajanagar","state_name":"Karnataka","location":"Near SBI Bank Honganuru","pincode":"571117","block_name":"Chamarajanagar","lat":"11.95992000","long":"77.01740000"},{"center_id":401223,"name":"Hongahalli SC Covishield","district_name":"Chamarajanagar","state_name":"Karnataka","location":"Lingayath Street Hongahalli","pincode":"571111","block_name":"Gundlupet","lat":"11.98420000","long":"77.04210000"},{"center_id":399432,"name":"Kagalavadi 2","district_name":"Chamarajanagar","state_name":"Karnataka","location":"Near Police Station Kagalavadi","pincode":"571117","block_name":"Chamarajanagar","lat":"11.95939630","long":"77.01914650"},{"center_id":399432,"name":"Kagalavadi PHC","district_name":"Chamarajanagar","state_name":"Karnataka","location":"Near Police Station Kagalavadi","pincode":"571117","block_name":"Chamarajanagar","lat":"11.95939630","long":"77.01914650"},{"center_id":646477,"name":"Kagalavadi PHC Covax","district_name":"Chamarajanagar","state_name":"Karnataka","location":"Near Police Station Kagalavadi","pincode":"571117","block_name":"Chamarajanagar","lat":"11.95939630","long":"77.01914650"},{"center_id":399428,"name":"Honnuru PHC Covishield","district_name":"Chamarajanagar","state_name":"Karnataka","location":"Mellahalli Gate Main Road Honnuru","pincode":"571441","block_name":"Yelanduru","lat":"12.04459760","long":"76.99004750"},{"center_id":399428,"name":"Honnuru1","district_name":"Chamarajanagar","state_name":"Karnataka","location":"Mellahalli Gate Main Road Honnuru","pincode":"571441","block_name":"Yelanduru","lat":"12.04459760","long":"76.99004750"},{"center_id":401115,"name":"Honnuru PHC 2","district_name":"Chamarajanagar","state_name":"Karnataka","location":"Mellahalli Gate Main Road Honnuru","pincode":"571441","block_name":"Yelanduru","lat":"12.04459760","long":"76.99004750"},{"center_id":401115,"name":"Honnuru PHC Covaxin","district_name":"Chamarajanagar","state_name":"Karnataka","location":"Mellahalli Gate Main Road Honnuru","pincode":"571441","block_name":"Yelanduru","lat":"12.04459760","long":"76.99004750"},{"center_id":401080,"name":"Saraguru SC Covishield","district_name":"Chamarajanagar","state_name":"Karnataka","location":"Muslim Street Sraguru","pincode":"571342","block_name":"Chamarajanagar","lat":"11.95380000","long":"77.00150000"},{"center_id":686469,"name":"Handrakalli Sc Covaxin","district_name":"Chamarajanagar","state_name":"Karnataka","location":"Handrakalli Village","pincode":"571117","block_name":"Chamarajanagar","lat":"11.96690000","long":"76.96130000"},{"center_id":401161,"name":"Kempanapura SC Covishield","district_name":"Chamarajanagar","state_name":"Karnataka","location":"Near Bus Stand Kempanapura","pincode":"571115","block_name":"Chamarajanagar","lat":"11.96750000","long":"76.95990000"},{"center_id":401176,"name":"Yelanduru A Covishield","district_name":"Chamarajanagar","state_name":"Karnataka","location":"Gowtham Badavane Yelanduru A","pincode":"571441","block_name":"Yelanduru","lat":"12.04766000","long":"77.02650000"},{"center_id":601235,"name":"E S CON NURSING","district_name":"Viluppuram","state_name":"Tamil Nadu","location":"NO 13 HOSPITAL ROAD VANDIMEDU VILLUPURAM","pincode":"605602","block_name":"Koliyanur","lat":"11.94541580","long":"77.00000000"},{"center_id":401094,"name":"Y K Mole SC Covishield","district_name":"Chamarajanagar","state_name":"Karnataka","location":"Near Govt School, Y K Mole","pincode":"571441","block_name":"Yelanduru","lat":"12.04480000","long":"77.03260000"},{"center_id":686952,"name":"Y K Mole SC Covaxin","district_name":"Chamarajanagar","state_name":"Karnataka","location":"Y K Mole Subcentre","pincode":"571441","block_name":"Yelanduru","lat":"12.04480000","long":"77.03260000"},{"center_id":401176,"name":"Yelanduru A Covishield","district_name":"Chamarajanagar","state_name":"Karnataka","location":"Gowtham Badavane Yelanduru A","pincode":"571441","block_name":"Yelanduru","lat":"12.04760000","long":"77.02870000"},{"center_id":401113,"name":"Duggahatti SC Covishield","district_name":"Chamarajanagar","state_name":"Karnataka","location":"Main Road Duggahatti","pincode":"571441","block_name":"Yelanduru","lat":"12.05930000","long":"77.00480000"},{"center_id":399420,"name":"Gumballi PHC","district_name":"Chamarajanagar","state_name":"Karnataka","location":"B R Hills Main Road Karuna Trust Uppinamole","pincode":"571441","block_name":"Yelanduru","lat":"12.04228630","long":"77.04577040"},{"center_id":643752,"name":"Gumballi PHC Covaxin","district_name":"Chamarajanagar","state_name":"Karnataka","location":"B R Hills Main Road Karuna Trust Uppinamole","pincode":"571441","block_name":"Yelanduru","lat":"12.04228630","long":"77.04577040"}],"ttl":24}
